Long,Lat,Name,Place ID,Materials
-46.5480155,-23.5355632,Ecoponto - Viaduto Eng.º Alberto Badra,ChIJI3YJu2dezpQRVovLuu20ipM,papel;plástico;metal;vidro;entulho;móveis
-46.4827493,-23.52295,Ecoponto - Jardim São Nicolau,ChIJH4h6H9pgzpQRvhfmcAKA1HE,papel;plástico;metal;vidro;entulho;móveis
-46.3992843,-23.5655981,Ecoponto- Jardim São Paulo,ChIJe-dQMnRlzpQRE3VSJ8q7vfo,papel;plástico;metal;vidro;entulho;móveis
-46.4111933,-23.589706,Ecoponto - Nascer do Sol,ChIJ8X1l1mVvzpQRVX8C7Hfyd34,papel;plástico;metal;vidro;entulho;móveis
-46.4639847,-23.5205754,Ecoponto - Parque Guarani,ChIJt3EVNDFhzpQRVPrhOV5pvMI,papel;plástico;metal;vidro;entulho;móveis
-46.37081,-23.4974419,Ecoponto - Moreira,ChIJG_WvjKhkzpQRhD-Mn98gXLU,papel;plástico;metal;vidro;entulho;móveis
-46.6306006,-23.6324301,Ecoponto - Imigrantes,ChIJSZ01ygJbzpQRWoqfVxbh6D8,papel;plástico;metal;vidro;entulho;móveis
-46.4620587,-23.6293732,Ecoponto - Cipoaba,ChIJ94mrwuhozpQR6NinGlUwnUE,papel;plástico;metal;vidro;entulho;móveis
-46.4573729,-23.5112824,Ecoponto - Imperador,ChIJPZeBuUdhzpQR4n0dhgKWbp8,papel;plástico;metal;vidro;entulho;móveis
-46.3944134,-23.490697,Ecoponto - Carlito Maia,ChIJY75UpnFjzpQRvvCVK-4eL-I,papel;plástico;metal;vidro;entulho;móveis
-46.4624155,-23.5063706,Ecoponto - Pedro Nunes,ChIJxSBA6hVhzpQR814PIr-gBUM,papel;plástico;metal;vidro;entulho;móveis
-46.5712273,-23.5825282,Ecoponto - Anhaia Mello,hIJV06QoHJdzpQR2SSSyJa_UM4,papel;plástico;metal;vidro;entulho;móveis
-46.5344086,-23.5991004,Ecoponto - São Lucas,ChIJV06QoHJdzpQR2SSSyJa_UM4,papel;plástico;metal;vidro;entulho;móveis
-46.4972949,-23.6074938,Ecoponto - Sapopemba,ChIJSYKrVd1nzpQR-_2NN-xepzw,papel;plástico;metal;vidro;entulho;móveis
-46.5089169,-23.6232864,Ecoponto - Vila Cardoso Franco,ChIJE4ZwhwZozpQRtgDz95EpQTs,papel;plástico;metal;vidro;entulho;móveis
-46.5247929,-23.5498743,Ecoponto - Astarte,ChIJjR2rJP1dzpQRehbrTyXtJSw,papel;plástico;metal;vidro;entulho;móveis
-46.6085623,-23.5691131,Ecoponto- Tereza Cristina,ChIJYYq3l1xZzpQR48Ui_kqjxck,papel;plástico;metal;vidro;entulho;móveis
-46.4917575,-23.5565885,Ecoponto - Osvaldo Valle Cordeiro,ChIJKTQIDxZnzpQR90zzxzbO-IQ,papel;plástico;metal;vidro;entulho;móveis
-46.4321467,-23.5117153,Ecoponto - Itaqueruna,ChIJ4Y2-uftjzpQRFyZgs2lMti8,papel;plástico;metal;vidro;entulho;móveis
-46.5089679,-23.5874519,Ecoponto - Nova York,ChIJjTsPWIRnzpQRXZXtEkMNcic,papel;plástico;metal;vidro;entulho;móveis
-46.4130226,-23.5552664,Ecoponto - Guaianases,ChIJZ4Qe-LBlzpQR3OZm3cX74I8,papel;plástico;metal;vidro;entulho;móveis
-46.3964288,-23.5862483,Ecoponto - Setor G,ChIJjQ_yhYNvzpQRFfCC6E6nUcs,papel;plástico;metal;vidro;entulho;móveis
-46.3895157,-23.5012521,Ecoponto - Pesqueiro,ChIJQ_7IgmJjzpQR0s8szkVSQ3I,papel;plástico;metal;vidro;entulho;móveis
-46.4993138,-23.5623703,Ecoponto - Cidade Líder,ChIJ6zUrUxNnzpQRqpHGsmM4soE,papel;plástico;metal;vidro;entulho;móveis
-46.4015106,-23.5735154,Ecoponto - Inácio Monteiro,ChIJt6sfhYJlzpQRIzYwKVGl6Mc,papel;plástico;metal;vidro;entulho;móveis
-46.4215803,-23.5161544,Ecoponto - Flamingo,ChIJAU8I3gpkzpQROZ3SROh_QNY,papel;plástico;metal;vidro;entulho;móveis
-46.5839758,-23.5306904,Ecoponto - Tatuapé,ChIJmd4D_tdezpQRCa8mci8GBYA,papel;plástico;metal;vidro;entulho;móveis
-46.5256758,-23.5311447,Ecoponto - Penha ,ChIJzWmAKBhezpQRBW9RWscNXWQ,papel;plástico;metal;vidro;entulho;móveis
-46.5445554,-23.5144601,Ecoponto - Tiquatira,ChIJS5gnQrJfzpQR-H1hDCbOovc,papel;plástico;metal;vidro;entulho;móveis
-46.4950071,-23.5507261,Ecoponto - Gamelinha,ChIJc7Eq4ThnzpQRL2EWM7KrfRU,papel;plástico;metal;vidro;entulho;móveis
-46.5048936,-23.5392542,Ecoponto - Vila Matilde,ChIJPfQy9LJgzpQRtmTZj51a764,papel;plástico;metal;vidro;entulho;móveis
-46.5270191,-23.5037939,Ecoponto - Cangaíba,ChIJxQw9s89fzpQRnFrTeP5eVdc,papel;plástico;metal;vidro;entulho;móveis
-46.5940797,-23.5428296,Ecoponto - Belém,ChIJ6XELWi1ZzpQRPJp0FAWpM-s,papel;plástico;metal;vidro;entulho;móveis
-46.7767213,-23.663906,Ecoponto Santo Dias,ChIJW0AXq7pTzpQR211uU0s5UZo,papel;plástico;metal;vidro;entulho;móveis
-46.7922843,-23.6718584,Ecoponto - Parque Fernanda,ChIJKfFoywVTzpQRSl0z7lu-Jy0,papel;plástico;metal;vidro;entulho;móveis
-46.757842,-23.6336133,Ecoponto- Olinda ,ChIJQ_LgrfBTzpQRg45ZtBkAoKI,papel;plástico;metal;vidro;entulho;móveis
-46.7192853,-23.6654442,Ecoponto- Cidade Saudável ,ChIJPywjYKRRzpQRUdJD_2U74U8,papel;plástico;metal;vidro;entulho;móveis
-46.6515702,-23.6954905,Ecoponto - Alvarenga ,ChIJyyqCMW1FzpQRvI3HjBRxw6Y,papel;plástico;metal;vidro;entulho;móveis
-46.6550034,-23.6666283,Ecoponto- Cupecê,ChIJ8YebMLRazpQR6pZ16tJrjIs,papel;plástico;metal;vidro;entulho;móveis
-46.6231497,-23.5996238,Ecoponto - Santa Cruz,ChIJ6-DkZchbzpQRQSXcdOPl1_g,papel;plástico;metal;vidro;entulho;móveis
-46.7130183,-23.635853,Ecoponto - Alceu Maynard de Araújo,ChIJB_AIwx5RzpQRxcRCUFO_qVc,papel;plástico;metal;vidro;entulho;móveis
-46.6855699,-23.6282871,Ecoponto - Vicente Rao ,ChIJayOR8JNQzpQRaqJmeZCYdD0,papel;plástico;metal;vidro;entulho;móveis
-46.6446474,-23.6117038,Ecoponto - Mirandópolis,ChIJR8bO_kZazpQR6sTrnHeGxyM,papel;plástico;metal;vidro;entulho;móveis
-46.7419392,-23.6381996,Ecoponto - Beleza,ChIJRV3Jc1xRzpQRQ8BPKucj6zU,papel;plástico;metal;vidro;entulho;móveis
-46.6497999,-23.6533336,Ecoponto - Jabaquara,ChIJScbve79azpQR-kLhhHW9xjM,papel;plástico;metal;vidro;entulho;móveis
-46.6348064,-23.5931411,Ecoponto - Vila Mariana,ChIJx3lwTyxazpQROMFvdTTuhI8,papel;plástico;metal;vidro;entulho;móveis
-46.6228706,-23.5941304,Ecoponto - Saioa,ChIJT6Tge89bzpQRH8mz96n1fXY,papel;plástico;metal;vidro;entulho;móveis
-46.6031885,-23.5474351,Ecoponto - Moóca ,ChIJ9RbWCTBZzpQR-JJxPkhZryg,papel;plástico;metal;vidro;entulho;móveis
-46.6370597,-23.556555,Ecoponto - Liberdade,ChIJif1-Ea5ZzpQRi8XZhmFx-VI,papel;plástico;metal;vidro;entulho;móveis
-46.6481745,-23.5274578,Ecoponto - Barra Funda ,ChIJ1S-PU2xYzpQRpdLfCNRobjg,papel;plástico;metal;vidro;entulho;móveis
-46.656027,-23.4917169,Ecoponto - Parque Peruche,ChIJMfUu05b3zpQRZJkPKP0hj6k,papel;plástico;metal;vidro;entulho;móveis
-46.6698226,-23.4722745,Ecoponto - Vila Nova Cachoeirinha,ChIJdWavY2L3zpQR85iY21snYTE,papel;plástico;metal;vidro;entulho;móveis
-46.7220131,-23.492104,Ecoponto - Cônego José Salomon,ChIJLW5bmxD5zpQRO9iVeT_wmqM,papel;plástico;metal;vidro;entulho;móveis
-46.6004045,-23.5171655,Ecoponto - Vila Guilherme,ChIJM-cf1slYzpQRiTVjQw5XTdM,papel;plástico;metal;vidro;entulho;móveis
-46.5655491,-23.4862764,Ecoponto - Vila Sabrina,ChIJw1UvoGJfzpQR2kVNbEkiVJA,papel;plástico;metal;vidro;entulho;móveis
-46.5834421,-23.5175271,Ecoponto - Vila Maria,ChIJ3yT6czpfzpQRZDK_gmSqLLc,papel;plástico;metal;vidro;entulho;móveis
-46.5522856,-23.531186,Ecoponto - Vila Luísa,ChIJBcHDUlhezpQRifnRTsumbVE,papel;plástico;metal;vidro;entulho;móveis
-46.6099557,-23.4672954,Ecoponto - Tucuruvi,ChIJ_WdDIWH2zpQRVh3xp8s60KQ,papel;plástico;metal;vidro;entulho;móveis
-46.6749001,-23.4698401,Ecoponto - Vila Rica,ChIJ52rvmt75zpQRMPV2lOK05WM,papel;plástico;metal;vidro;entulho;móveis
-46.7468329,-23.5956082,Ecoponto - Jardim Maria do Carmo,ChIJ0SUJxoJWzpQRLsVp6eZfsVM,papel;plástico;metal;vidro;entulho;móveis
-46.6949844,-23.4861608,Ecoponto - Bandeirantes,ChIJyU-ZMbH5zpQR8y5jUurVT5M,papel;plástico;metal;vidro;entulho;móveis
-46.6712415,-23.5248707,Ecoponto - Viad. Antártica ,ChIJ_4bPhf9XzpQR8hQQWW7HAvM,papel;plástico;metal;vidro;entulho;móveis
-46.691452,-23.5974167,Ecoponto - Berrini,ChIJq0bJljdXzpQRI8ukSAOO8iM,papel;plástico;metal;vidro;entulho;móveis
-46.6873448,-23.5581744,Ecoponto - Vila Madalena,ChIJBTOztZlXzpQRrcCkGUTsIkc,papel;plástico;metal;vidro;entulho;móveis
-46.7491704,-23.4534928,Ecoponto - Alexios Jafet,ChIJK5LGGXX8zpQRjhhir9Vq0y8,papel;plástico;metal;vidro;entulho;móveis
-46.6053516,-23.6239235,Ecoponto - Vila das Mercês,ChIJ04wv1XFbzpQRJXeLtfZvUN4,papel;plástico;metal;vidro;entulho;móveis
-46.6109267,-23.5544648,Ecoponto - Brás,hIJXyjUeT5ZzpQR2cRhlWd9tLM,papel;plástico;metal;vidro;entulho;móveis
-46.6060176,-23.5435317,Ecoponto - Bresser,ChIJ96pyISRZzpQRkymUSYC95Wo,papel;plástico;metal;vidro;entulho;móveis
-46.7419794,-23.516499,Ecoponto - St. Nicholas Garden,ChIJH4h6H9pgzpQRvhfmcAKA1HE,papel;plástico;metal;vidro;entulho;móveis
-46.71056,-23.5570008,Ecoponto- Alto de Pinheiros,ChIJAYtX6EpWzpQR9wYUyDxgxd8,papel;plástico;metal;vidro;entulho;móveis
-46.7652181,-23.5758147,Ecoponto - Politécnica,ChIJfWNXNMFVzpQRl-3mdVQRvlI,papel;plástico;metal;vidro;entulho;móveis
-46.7920415,-23.4318315,Ecoponto - Jardim Santa Fé,ChIJBQjCtxj9zpQRMSw626XXfPM,papel;plástico;metal;vidro;entulho;móveis
-46.7054021,-23.5035839,Ecoponto - Freguesia do Ó,ChIJe4BE_ln4zpQRWdeWBHMdlNY,papel;plástico;metal;vidro;entulho;móveis
-46.6716519,-23.4939748,Ecoponto - Vila Santa Maria,ChIJV4qCCyj4zpQRVQRKn7HYKPE,papel;plástico;metal;vidro;entulho;móveis
-46.7362042,-23.669833,Ecoponto - Piraporinha,ChIJxUa0cZBRzpQRvUwZ2I87A2k,papel;plástico;metal;vidro;entulho;móveis
-46.656191,-23.513087,Lixo Eletrônico - Coopermiti (Santa Cecília),ChIJeanC_eP3zpQRNT3KNhKesa0,computadores;CPUs;notebooks;impressoras;rádios;celulares;televisões;microondas;liquidificadores
-46.525473,-23.580902,Lixo Eletrônico - CEU Formosa ,ChIJP27QsIRdzpQR0NA4Y8PN8pg,computadores;CPUs;notebooks;impressoras;rádios;celulares;televisões;microondas;liquidificadores
-4.675722,-23.547346,Lixo Eletrônico - Shopping Continental ,ChIJzX0tSFf_zpQRsnSHskShUKM,computadores;CPUs;notebooks;impressoras;rádios;celulares;televisões;microondas;liquidificadores
-46.707894,-23.651317,Lixo Eletrônico - Paço Cultural Julio Guerra ,ChIJa2jqFVVQzpQRR1VkKQNvw9A,computadores;CPUs;notebooks;impressoras;rádios;celulares;televisões;microondas;liquidificadores
-46.729749,-23.584273,Lixo Eletrônico - Parque Luis Carlos Prestes,ChIJG83zMYtWzpQRvlbhHdFpK98,computadores;CPUs;notebooks;impressoras;rádios;celulares;televisões;microondas;liquidificadores
-46.726374,-23.579058,Lixo Eletrônico - Instituto de Previdencia ,ChIJJ6ygmF9WzpQRyZ5Tc6wrI60,computadores;CPUs;notebooks;impressoras;rádios;celulares;televisões;microondas;liquidificadores
-46.701,-23.589273,Lixo Eletrônico - Parque Alfredo Volpi,ChIJP1UFZxhXzpQRZM5i7c1Dx14,computadores;CPUs;notebooks;impressoras;rádios;celulares;televisões;microondas;liquidificadores
-46.600002,-23.527564,Lixo Eletrônico - Associação Reciclázaro ,ChIJ2bF6xNFYzpQRW7SXEjEBpBM,computadores;CPUs;notebooks;impressoras;rádios;celulares;televisões;microondas;liquidificadores
-46.742705,-23.559728,Lixo Eletrônico - CEDIR - USP,ChIJsYRqaw5WzpQRXE5qxhGJMKo,computadores;CPUs;notebooks;impressoras;rádios;celulares;televisões;microondas;liquidificadores
-46.645493,-23.483184,Lixo Eletrônico - Santana Parque Shopping,ChIJzYBViaT3zpQR4qdH7YZnkNk,computadores;CPUs;notebooks;impressoras;rádios;celulares;televisões;microondas;liquidificadores
-46.700046,-23.522478,Lixo Eletrônico - Colégio Heitor Garcia,ChIJiXLLonT4zpQR-CBbN-H23oo,computadores;CPUs;notebooks;impressoras;rádios;celulares;televisões;microondas;liquidificadores
-46.470576,-23.481766,Lixo Eletrônico - Cooperativa de Reciclagem Nova Esperança,Ej5SdWEgSmFwaWNoYXVhLCAzMTEgLSBKYXJkaW0gTWF0YXJhenpvLCBTw6NvIFBhdWxvIC0gU1AsIEJyYXppbCIxEi8KFAoSCdn3SdWxYc6UEZ3_JInw7PrMELcCKhQKEgnlTIwIpWHOlBGs6TxRe1rEvA,computadores;CPUs;notebooks;impressoras;rádios;celulares;televisões;microondas;liquidificadores
-46.45784,-23.622506,Lixo Eletrônico - Conj. Promorar Rio Claro,ElZSLiBDaW5pcmEgUG9sw7RuaW8sIDM2OSAtIENvbmouIFByb21vcmFyIFJpbyBDbGFybywgU8OjbyBQYXVsbyAtIFNQLCAwODM5NS0zMjAsIEJyYXppbCIxEi8KFAoSCQ9SsM3BaM6UEWWaanJEoCk8EPECKhQKEgn_fEZ6wWjOlBG0ei6qRVuKkg,computadores;CPUs;notebooks;impressoras;rádios;celulares;televisões;microondas;liquidificadores
-46.7029868,-23.5194023,Lixo Eletrônico - Casas Bahia (Loja 4),ChIJMa7dnWb4zpQRuFaSrXTwoHI,eletrodomésticos;eletrônicos de pequeno porte
-46.7481259,-23.5572596,Lixo Eletrônico - Extra Jaguaré,ChIJvYQyJFNYzpQRe6QZqRuQlWE,eletrodomésticos;eletrônicos de pequeno porte
-46.7266632,-23.5182239,Lixo Eletrônico - Extra Anhanguera,ChIJtePoe-n4zpQRfkJMSBkEiGQ,eletrodomésticos;eletrônicos de pequeno porte
-46.7038317,-23.5188968,Lixo Eletrônico - Lojas Americanas (Lapa),ChIJuRnJumb4zpQRje-YV97kX_4,eletrodomésticos;eletrônicos de pequeno porte
-46.7020895,-23.5205054,Lixo Eletrônico - Pernambucanas (Lapa),ChIJMwK5J2T4zpQRDvnXqfGqmW4,eletrodomésticos;eletrônicos de pequeno porte
-46.7002252,-23.5097344,Lixo Eletrônico - Ponto Frio Megastore,ChIJG7VHulz4zpQRarM2GP2MIQw,eletrodomésticos;eletrônicos de pequeno porte
-46.7023779,-23.520667,Lixo Eletrônico - Ponto Frio Lapa 6,ChIJichHmWb4zpQRzGtyAtBBc-M,eletrodomésticos;eletrônicos de pequeno porte
-46.6576373,-23.5219268,Lixo Eletrônico - Walmart Pacaembú,ChIJ990pyw5YzpQRJSWuJP6Zvww,eletrodomésticos;eletrônicos de pequeno porte
-46.7305826,-23.5370901,Lixo Eletrônico - Walmart Vila Leopoldina,ChIJI3tlp6P4zpQRw9ETtvzeTNE,eletrodomésticos;eletrônicos de pequeno porte
-46.647455,-23.540587,PEV - Terminal Amaral Gurge,ChIJB48Hi0ZYzpQRFN_ypdpDiEk,papel;plástico;metal;vidro
-46.681442,-23.517193,PEV - CET,ChIJzze93A_4zpQRHP7Kre5eqto,papel;plástico;metal;vidro
-46.607385,-23.466254,PEV - Praça Lions Clube,ChIJ0WlFi2P2zpQRlAmO1AEop6c,papel;plástico;metal;vidro
-46.724935,-23.494252,PEV - Parque Jardim Felicidade,ChIJQwyRlBn5zpQRqKsbHHqavjQ,papel;plástico;metal;vidro
-46.5980235,-23.5147029,PEV - Parque Vila Guilherme-Trote,ChIJ_yFJP7RYzpQRBw4dKdNVDds,papel;plástico;metal;vidro
-46.740591,-23.564975,PEV - USP/HU,ChIJpQB2-QxWzpQRlJbpob8EeYs,papel;plástico;metal;vidro
-46.719771,-23.560789,PEV - USP/Praça do Relógio,ChIJsTTjZT9WzpQRonfScRvvv1w,papel;plástico;metal;vidro
-46.575719,-23.529868,PEV - Parque do Piqueri,ChIJT4t6sd9ezpQRI3XzArVFOsg,papel;plástico;metal;vidro
-46.72614,-23.579473,PEV - Parque Previdência,ChIJJYwUPvVWzpQRQfciu5KFcb8,papel;plástico;metal;vidro
-46.756156,-23.588059,PEV - Parque Raposo Tavares,ChIJG7iFn9JVzpQRLQa3hx8JxgQ,papel;plástico;metal;vidro
-46.567126,-23.5369831,PEV - 8º Batalhão de PM,ChIJ07kP9O5ezpQRkBWzCGVD5r4,papel;plástico;metal;vidro
-46.61884,-23.472297,PEV - Academia de Policia Militar Barro Branco,ChIJZYyx8lv2zpQRQtohl9beRKM,papel;plástico;metal;vidro
-46.521348,-23.523213,PEV - Auto Posto 5000,ChIJy7Zh_yNezpQRqKVSdGhgINI,papel;plástico;metal;vidro
-46.789612,-23.600724,PEV - CEU UIRAPURU,hIJ52vRrOJUzpQRGu9_hgOs4PI,papel;plástico;metal;vidro
-46.587215,-23.458465,PEV - Clube Guapira,ChIJO_I_o9P1zpQRxvjRHRQkQks,papel;plástico;metal;vidro
-46.596923,-23.530006,PEV - União dos Operários Futebol Club,ChIJuaAYdtFYzpQRVrB00dPIsps,papel;plástico;metal;vidro
-46.621697,-23.551592,PEV - Corpo Musical Policia Militar,ChIJxZXCOvRYzpQRkOsGMmcFDbk,papel;plástico;metal;vidro
-46.689659,-23.565626,PEV - E.E.Fernão Dias Paes,ChIJoTNn9J9XzpQRMuVYNAO1j1c,papel;plástico;metal;vidro
-46.781452,-23.597004,PEV - Educandário Dom Duarte,ChIJU0qqhKxVzpQRKEuEhu2YoZ0,papel;plástico;metal;vidro
-46.754358,-23.398932,PEV -  E.M.E.F. Cândido Portinari,ChIJ2XegbKv8zpQR6OUnHwOCRNY,papel;plástico;metal;vidro
-46.792858,-23.429936,PEV - E.M.E.F. Paulo Prado,ChIJ389laCL9zpQR644XhlgXSIQ,papel;plástico;metal;vidro
-46.79741,-23.594392,PEV - E.M.E.F. Teófilo Benedito Ottoni,ChIJy4FODRBVzpQRrl3QoB1Qg1c,papel;plástico;metal;vidro
-46.556425,-23.53315,PEV - E.E. Carlos Escobar,ChIJPVOqtPdezpQR7e6R5CTr82E,papel;plástico;metal;vidro
-46.6371473,-23.5366551,PEV - Estação Tiradentes,ChIJP2Oqgl9YzpQRUNDHGfc1Tv0,papel;plástico;metal;vidro
-46.725406,-23.44206,PEV - Etec Jaraguá,ChIJn6-Ekb77zpQRcWafZqhNXXg,papel;plástico;metal;vidro
-46.606061,-23.553955,PEV - Juventus Com. De Comb.LTDA,ChIJD_VbHDlZzpQRzeykyEM1BRw,papel;plástico;metal;vidro
-46.616956,-23.520518,PEV - Amlurb,ChIJFw8IfZRYzpQRnsNZnUQ6G2w,papel;plástico;metal;vidro
-46.633448,-23.536458,PEV - Metrô Luz,ChIJXQ5MLVhYzpQRCRr4otYMqmE,papel;plástico;metal;vidro
-46.701517,-23.519268,PEV - Mercado da Lapa,ChIJA3-tz2X4zpQRR7Kaxnc6qG8,papel;plástico;metal;vidro
-46.717403,-23.490792,PEV - Mercado Municipal Pirituba,ChIJE-6eZAX5zpQRlD6dmQeWHO4,papel;plástico;metal;vidro
-46.589709,-23.542635,PEV - Metro Estaçao Belém,ChIJjxcHRNdezpQR94HgMTn0FYg,papel;plástico;metal;vidro
-46.607245,-23.54638,PEV - Metro Estação Bresser-Mooca,ChIJcxO3EiRZzpQRAKoDVD6OWBA,papel;plástico;metal;vidro
-46.564444,-23.537856,PEV - Metro Estação Carrão,ChIJFUOhHO5ezpQR8bhqv5hqsN8,papel;plástico;metal;vidro
-46.635554,-23.555226,PEV - Metro Estação Liberdade,ChIJqzxzPKlZzpQRlXR0NTfcww0,papel;plástico;metal;vidro
-46.542584,-23.533478,PEV - Metro Estação Penha,ChIJ98b18UJezpQROejJEbXSZ4Q,papel;plástico;metal;vidro
-46.530915,-23.531895,PEV - Metro Estação Vila Matilde,ChIJpfJJ_BVezpQRl9Z_3n5sWEU,papel;plástico;metal;vidro
-46.640112,-23.568877,PEV - Metro Estação Vergueiro,ChIJw5v_m6JZzpQRBZrnnndU30c,papel;plástico;metal;vidro
-46.627905,-23.554666,PEV - Paróquia Nossa Senhora da Paz,ChIJ3w_APwZZzpQR4rYn9c59YCw,papel;plástico;metal;vidro
-46.66993,-23.530061,PEV - Parque da Água Branca,ChIJzQ_kIgNYzpQRFLRuCm6bgkI,papel;plástico;metal;vidro
-46.701308,-23.589345,PEV - Parque Alfredo Volpi,ChIJP1UFZxhXzpQRZM5i7c1Dx14,papel;plástico;metal;vidro
-46.606203,-23.461838,PEV - Parque Sena,ChIJffPD24n2zpQRcW8cBOXOfZE,papel;plástico;metal;vidro
-46.657397,-23.562379,PEV - Parque Trianon,ChIJ7yWJXc5ZzpQRxLROjU3O7cs,papel;plástico;metal;vidro
-46.75027,-23.513525,PEV - Parque Vila dos Remédios,ChIJDVoJ_yr_zpQR_YXjaq37gDM,papel;plástico;metal;vidro
-46.636259,-23.53929,PEV - Praça Alfredo Issa,ChIJvcn2XFdYzpQRHfiodJfi9WI,papel;plástico;metal;vidro
-46.665434,-23.544825,PEV - Praça Charles Miller,ChIJiwTPGCRYzpQRepm96RUYyuQ,papel;plástico;metal;vidro
-46.677122,-23.527719,PEV - Praça Conde Francisco Matarazzo Júnior,ChIJL0Uspf1XzpQRL1jD9UbMc38,papel;plástico;metal;vidro
-46.585534,-23.452332,PEV - Praça da Ocupação,ChIJFUgFpy30zpQRnpdERMHsLcM,papel;plástico;metal;vidro
-46.642562,-23.543136,PEV - Praça da República,ChIJW1UFzx9ZzpQRwfCFStDGJ1U,papel;plástico;metal;vidro
-46.657387,-23.508892,PEV - Praça do Centenário,ChIJxyiG6-X3zpQR-ENPPcDgR18,papel;plástico;metal;vidro
-46.758006,-23.410481,PEV - Praça do Samba,ChIJ7W8jt7r8zpQRDM-6kdKhqyE,papel;plástico;metal;vidro
-46.6460579,-23.5601941,PEV - Praça Dom Orione,ChIJsQamyLBZzpQRC4n9WRNbjFc,papel;plástico;metal;vidro
-46.6498917,-23.5193853,PEV - Praça da Embaixada Nordestina,ChIJi20IbxVZzpQRaVdVsmP4h2Y,papel;plástico;metal;vidro
-46.6723573,-23.5036047,PEV - Praça Professor Francisco D'Auria,ChIJRXEQPSD4zpQRsbOJ9gqb1vY,papel;plástico;metal;vidro
-46.6470976,-23.5476509,PEV - Praça Franklin Roosevelt,ChIJAx4cBkxYzpQRaZxv83GJ41k,papel;plástico;metal;vidro
-46.6840981,-23.5505985,PEV - Praça Horácio Sabino,ChIJfQf_fZFXzpQRYsX32qigyt8,papel;plástico;metal;vidro
-46.5939125,-23.5541433,PEV - Praça Industriários,ChIJzbmhukpZzpQRX_rAOFSl904,papel;plástico;metal;vidro
-46.6346029,-23.5527156,PEV - Praça João Mendes,ChIJ8Uf14WZZzpQRymTuN3jlLMw,papel;plástico;metal;vidro
-46.5719836,-23.5361386,PEV - Praça José Moreno,ChIJhwCRd-hezpQRDhedicAJLpY,papel;plástico;metal;vidro
-46.6433492,-23.5325815,PEv - Praça Largo Coração de Jesus,ChIJ64YElEJYzpQR6xRkRX1XTj0,papel;plástico;metal;vidro
-46.6456256,-23.5416005,PEV - Largo do Arouche,ChIJPaEcs09YzpQRSbAIu0qtvQI,papel;plástico;metal;vidro
-46.6534592,-23.535455,PEV - Praça Marechal Deodoro,ChIJA6vgeBVYzpQR_R_Xfy14KWg,papel;plástico;metal;vidro
-46.676955,-23.5437268,PEV - Praça Miriam de Barros,ChIJOTPZ1_JXzpQRQ-CBip07-kM,papel;plástico;metal;vidro
-46.7475329,-23.5096887,PEV - Praça Nair Zampieri Carbonaro,ChIJCT3_ySr5zpQRl5VpS6IFChE,papel;plástico;metal;vidro
-46.6557228,-23.5259256,PEV -  Praça Nicolau de Moraes Barros,ChIJZWppCg5YzpQRNiYbFgKR4eY,papel;plástico;metal;vidro
-46.5871189,-23.5151635,PEV - Praça Santo Eduardo,ChIJSeh1XzZfzpQRbg9NQhC7RCI,papel;plástico;metal;vidro
-46.5734527,-23.5450444,PEV - Praça Sílvio Romero,ChIJ2QeLr-pezpQRSD5tbpJ8m_o,papel;plástico;metal;vidro
-46.7122789,-23.5976745,PEV - Praça Vinícius de Moraes,ChIJNVQ-6N5WzpQRaqJ0SyLEGnE,papel;plástico;metal;vidro
-46.6887608,-23.4900135,PEV - Pronto Socorro da Freguesia do Ó,ChIJ2ViTx8r5zpQRwlyUjUcrZTk,papel;plástico;metal;vidro
-46.7126608,-23.4952792,PEV - UBS Moinho Velho ,ChIJU_CyRwH5zpQRwZAoxWd1jpY,papel;plástico;metal;vidro
-46.5612566,-23.548963,PEV - UBS Vila Santo Estevão,ChIJoT4AHo9ezpQRxfckOEib6C0,papel;plástico;metal;vidro
-46.6365016,-23.5443809,PEV - Vale do Anhangabáu,ChIJf9LVyWpZzpQRZEO6wJsVilc,papel;plástico;metal;vidro
-46.77424,-23.632776,PEV - Biblioteca Helena Silveira,ChIJM7MY-XZUzpQRfR9nvVDZcgM,papel;plástico;metal;vidro
-46.79381,-23.686292,PEV - CEU Feitiço da Vila,ChIJpw-3IvtSzpQRXVkVJ6r09lw,papel;plástico;metal;vidro
-46.7546885,-23.6293862,PEV - EE Dr. Helio Motta,ChIJCctei_hTzpQRbDqVqT_XZJs,papel;plástico;metal;vidro
-46.721457,-23.6322,PEV - Parque Burle Marx,ChIJ973PWDxRzpQRNWaQjjdr5Uk,papel;plástico;metal;vidro
-46.6410339,-23.6554775,PEV - EMEI Casemiro de Abreu ,ChIJpyziA9BazpQRvznVUHHQNKU,papel;plástico;metal;vidro
-46.6424195,-23.6359057,PEV - Parque Lina e Paulo Raia,ChIJ0z_mR_BazpQRIMgtx3e-9-Q,papel;plástico;metal;vidro
-46.6602042,-23.6627148,PEV - Parque Nabuco,ChIJBYABb7BazpQRU-GvT3pjjD4,papel;plástico;metal;vidro
-46.7653867,-23.6971051,PEV - CEU EMEI Guarapiranga,ChIJJ5CeMQxTzpQRYixpocSBOik,papel;plástico;metal;vidro
-46.6365974,-23.5216698,Coleta de Óleo - Coopere-Centro ,ChIJ_xs21GNYzpQRc2oFN8b5DE4,óleo de cozinha
-46.6980802,-23.69323,Coleta de Óleo - Coopercaps,ChIJP7c3wdpPzpQRleYDttGxH8Q,óleo de cozinha
-46.4284375,-23.5034016,Coleta de Óleo - Cooperativa Nova Conquista,ChIJSxZCG_BjzpQR5rlXS_byqEs,óleo de cozinha
-46.3867885,-23.4982896,Coleta de Óleo - Fênix Agape,ChIJsUJSKGJjzpQRNSPokDcDaKg,óleo de cozinha
-46.7169956,-23.6399678,Coleta de Óleo- Cooperativa Nossos Valores,ChIJrV8hKrRRzpQRMQrc597P-2Y,óleo de cozinha
-46.6456745,-23.5742432,Coleta de Óleo - Pão de Açúcar Abílio Soares,ChIJSVTvlpZZzpQR2NOtc74QSXc,óleo de cozinha
-46.6880693,-23.5356303,Coleta de Óleo - Pão de Açúcar Afonso Bovero ,ChIJZ4PqmMxXzpQRT3KkaeELF-w,óleo de cozinha
-46.6394841,-23.5813605,Coleta de Óleo - Pão de Açúcar Ana Rosa,ChIJYzgrjbRZzpQRYr4jG-Z98sg,óleo de cozinha
-46.6359879,-23.6176202,Coleta de Óleo - Pão de Açúcar Carneiro da Cunha ,ChIJjd_MzFNazpQRX8yTNYGsct4,óleo de cozinha
-46.6594639,-23.5137812,Coleta de Óleo - Pão de Açúcar Casa Verde,ChIJ7T8zkeT3zpQR2P1soX3EOlE,óleo de cozinha
-46.639442,-23.602551,Coleta de Óleo - Pão de Açúcar Vila Clementino ,ChIJkSXphcFbzpQRy7lMgxNrkZw,óleo de cozinha
-46.6597854,-23.6003268,Coleta de Óleo - Pão de Açúcar Ibirapuera ,ChIJH_6CaRtazpQRIHKU8kpnfyU,óleo de cozinha
-46.666833,-23.6003911,Coleta de Óleo - Pão de Açúcar Lavandisca ,ChIJK4YwUf5ZzpQRBFNxWYfDBck,óleo de cozinha
-46.682369,-23.5495608,Coleta de Óleo - Pão de Açúcar Sumaré ,ChIJFS3HO6lXzpQR1OR24rfcL0o,óleo de cozinha
-46.7087273,-23.5525674,Coleta de Óleo - Pão de Açúcar Praça Panamericana ,ChIJfearODVWzpQRSsho3Iz_SiM,óleo de cozinha
-46.6909566,-23.6301778,Coleta de Óleo - Pão de Açúcar Borba Gato ,ChIJva4fiqJRzpQR9YFnbht1SIk,óleo de cozinha
-46.6771634,-23.5925301,Coleta de Óleo - Pão de Açúcar Clodomiro Amazonas,ChIJRxobINhXzpQRB_lyS0oShMs,óleo de cozinha
-46.6370238,-23.5019176,Coleta de Óleo - Pão de Açúcar - Dr. César,ChIJo5zJ5NH3zpQRFB4dWcyNelc,óleo de cozinha
-46.6494289,-23.616977,Coleta de Óleo - Pão de Açúcar Guatás,ChIJhaXdA-xbzpQR_AhTRAWHiy8,óleo de cozinha
-46.680959,-23.5717114,Coleta de Óleo - Pão de Açúcar - Jardim Paulistano,ChIJj_RuYnBXzpQRecaWNVrKaNA,óleo de cozinha
-46.6704828,-23.5828632,Coleta de Óleo - Pão de Açúcar - Joaquim Floriano ,ChIJS6Tn3-FZzpQRthfv6wwOKbI,óleo de cozinha
-46.7219312,-23.5861405,Coleta de Óleo - Pão de Açúcar Morumbi,ChIJtS_J8kRXzpQRRHBFKQ2CuJQ,óleo de cozinha
-46.6216438,-23.4881806,Coleta de Óleo - Pão de Açúcar - Nova Cantareira,ChIJR_gEIDj2zpQRKzedFbxr36o,óleo de cozinha
-46.6409582,-23.5626587,Coleta de Óleo - Pão de Açúcar - Pedroso,ChIJm9vgIptZzpQRCBSwqH0KJDU,óleo de cozinha
-46.6741119,-23.5612847,Coleta de Óleo - Pão de Açúcar - Rebouças,ChIJT5hh3YFXzpQRl4w5__cW2ng,óleo de cozinha
-46.6506841,-23.6029041,Coleta de Óleo - Pão de Açúcar - Rubem Berta,ChIJ0_SVbj1azpQRy1T-yyUU6c8,óleo de cozinha
-46.6320943,-23.4889495,Coleta de Óleo - Pão de Açúcar - Augusto Tolle ,ChIJ80nTSbX3zpQRXXmCWlUyleI,óleo de cozinha
-46.7289808,-23.6339865,Coleta de Óleo - Pão de Açúcar Panamby,ChIJWaerukBRzpQRlHT6dJoGcus,óleo de cozinha
-46.5746577,-23.5242909,Coleta de Pilhas - Atacadão Matriz,ChIJJRUjuAlfzpQR1Kv_29W74Vw,pilhas;baterias
-46.720349,-23.4363526,Coleta de Pilhas - Atacadão Taipas,ChIJwdIPibr7zpQRh6myKZB8M4Q,pilhas;baterias
-46.4561257,-23.4948547,Coleta de Pilhas - Atacadão Vila Jacui,ChIJQQEKfm1hzpQRS4bgq_56-Pc,pilhas;baterias
-46.6005127,-23.5811242,Coleta de Pilhas - Atacadão Ipiranga,ChIJO1Jvg_tbzpQRLtgHGmgFJAY,pilhas;baterias
-46.7369715,-23.6696933,Coleta de Pilhas - Atacadão Santo Amaro ,ChIJQUHDfpBRzpQRZRRabstOTCE,pilhas;baterias
-46.4206232,-23.4940061,Coleta de Pilhas - Atacadão São Miguel ,ChIJc8RBt-pjzpQRFOigAwphJgw,pilhas;baterias
-46.4468671,-23.5599305,Coleta de Pilhas - Atacadão Itaquera ,ChIJjV53vUhhzpQRtwqgAJUfKag,pilhas;baterias
-46.6446501,-23.629195,Coleta de Pilhas - ABIMAQ,ChIJfzK6OvZazpQR-HnpJnsaXl8,pilhas;baterias
-46.6732548,-23.5310289,Coleta de Pilhas - AGS DIGITAL SERVICE ,ChIJva6iVPhXzpQRCXUG4q7mNKw,pilhas;baterias
-46.5987915,-23.6313186,Coleta de Pilhas - Carrefour Anchieta ,ChIJH7qMOK1czpQRd6I0OvN-6rc,pilhas;baterias
-46.5165111,-23.5600887,Coleta de Pilhas - Carrefour Aricanduva,ChIJbRIBmPVdzpQRiwfzyoRQfow,pilhas;baterias
-46.6864684,-23.6258616,Coleta de Pilhas - Carrefour Brooklin,ChIJJTAyspVQzpQRhwNCGMdG6Rw,pilhas;baterias
-46.725046,-23.584668,Coleta de Pilhas - Carrefour Butantã,ChIJBYSRSvJWzpQRbfL6kjbOieo,pilhas;baterias
-46.6552751,-23.5128145,Coleta de Pilhas - Carrefour Casa Verde,ChIJNXW3rub3zpQRlyBGI78duTk,pilhas;baterias
-46.620685,-23.5143,Coleta de Pilhas - Carrefour Center Norte,ChIJQwTvlZpYzpQRAup4DoMOcyU,pilhas;baterias
-46.7344477,-23.6422907,Coleta de Pilhas - Carrefour Giovanni Gronchi ,ChIJ4S0ZpmlRzpQRQyAuEmXFric,pilhas;baterias
-46.627705,-23.619219,Coleta de Pilhas - Carrefour Imigrantes,ChIJzS8lXKlbzpQRMMdGTZMBhD8,pilhas;baterias
-46.675378,-23.6775397,Coleta de Pilhas - Carrefour Interlargos,ChIJIZER4AJQzpQREda1fElCVI4,pilhas;baterias
-46.6005127,-23.5811242,Coleta de Pilhas - Carrefour Ipiranga,ChIJUcJaG_tbzpQRFrEuQsUe0tw,pilhas;baterias
-46.6422646,-23.6390438,Coleta de Pilhas - Carrefour Jabaquara,ChIJpaUdde9azpQRh5Jnyu2xOdk,pilhas;baterias
-46.6748104,-23.5125869,Coleta de Pilhas - Carrefour Limão ,ChIJT8tSmBz4zpQRfYrM0AZf0lo,pilhas;baterias
-46.7031567,-23.6152365,Coleta de Pilhas - Carrefour Matriz,ChIJo19B5tNQzpQRyMMNGOR-fAQ,pilhas;baterias
-46.7088584,-23.5995013,Coleta de Pilhas - Carrefour Morumbi,ChIJXa6Wl6VWzpQRcmbX03pGXSg,pilhas;baterias
-46.6613305,-23.5704291,Coleta de Pilhas - Carrefour Pamplona,ChIJKYDlUttZzpQRFI4hRaDPhS4,pilhas;baterias
-46.446353,-23.5697957,Coleta de Pilhas - Carrefour Pêssego ,ChIJtzYoZ3BmzpQRVIGeZ1NAtWw,pilhas;baterias
-46.7106451,-23.6298728,Coleta de Pilhas - Carrefour Pinheiros,ChIJxXppWSBRzpQRNnyVfPHbGW4,pilhas;baterias
-46.7394263,-23.4857713,Coleta de Pilhas - Carrefour Pirituba,ChIJJWoTrD_5zpQR7MUpPiNrGVk,pilhas;baterias
-46.7788302,-23.5853601,Coleta de Pilhas - Carrefour Raposo Tavares,ChIJC8Muj6NVzpQR_ieGacHPy0s,pilhas;baterias
-46.6958394,-23.5726514,Coleta de Pilhas - Carrefour Rebouças,ChIJFWHZFAlXzpQRRLR9NYwV_dg,pilhas;baterias
-46.700456,-23.694512,Coleta de Pilhas - Carrefour Interlagos,ChIJIZER4AJQzpQREda1fElCVI4,pilhas;baterias
-46.7412172,-23.6129095,Coleta de Pilhas - Carrefour Morumbi,ChIJXa6Wl6VWzpQRcmbX03pGXSg,pilhas;baterias
-46.5813928,-23.5366132,Coleta de Pilhas - Carrefour Tatuapé,ChIJgS6aUNpezpQROUhz2vJmSIg,pilhas;baterias
-46.5987414,-23.5214448,Coleta de Pilhas - Carrefour Tiête,ChIJt00tO89YzpQRekOiNwENJZo,pilhas;baterias
-46.6100962,-23.4786781,Coleta de Pilhas - Carrefour Tucuruvi,ChIJkYJ41mz2zpQRxCFe0pt_0QM,pilhas;baterias
-46.7304932,-23.5414721,Coleta de Pilhas - Carrefour Villalobos,ChIJXyqkHqH4zpQRKAtbSlPrBk4,pilhas;baterias
-46.5213465,-23.5225994,Coleta de Pilhas - Carrefour SHP,ChIJqw38BSRezpQR_mU_9VSOXao,pilhas;baterias
-46.5602858,-23.5625151,Coleta de Pilhas - Carrefour TTE,ChIJP5XPhClczpQR9sUkODA1Ur0,pilhas;baterias
-46.639442,-23.602551,Coleta de Pilhas - COMPANHIA BRASILEIRA DE DISTRIBUICAO - PÃO DE AÇUCAR,ChIJkSXphcFbzpQRy7lMgxNrkZw,pilhas;baterias
-46.669723,-23.6240883,Coleta de Pilhas - Eletrolar Assistência Técnica, ChIJQb-IN3ZazpQRQvT5WA648L4,pilhas;baterias
-46.6366937,-23.6058818,Coleta de Pilhas - Eletrônicas Assai,ChIJbVF1_jVazpQR-d7hb7wo1JM,pilhas;baterias
-46.6548702,-23.5732761,Coleta de Pilhas - GPA SEDE,ChIJ1W7f7cFZzpQRo75Xm8Hsius,pilhas;baterias
-46.5846235,-23.5356235,Coleta de Pilhas - Panafax Videoeletronica,ChIJidZVS9dezpQRw4u36M9leUs,pilhas;baterias
-46.5897856,-23.5587978,Coleta de Pilhas - Panatec Audio Video,ChIJQXyTODhZzpQRgr6yWuQOaqw,pilhas;baterias
-46.6930499,-23.6546937,Coleta de Pilhas - Walmart Washington Luís,ChIJhVpTJENQzpQR4lITy19Uy5U,pilhas;baterias
-46.6069509,-23.5137361,Coleta de Pilhas - Walmart Vila Guilherme,ChIJvYQyJFNYzpQReptQaK6QTvM,pilhas;baterias
-46.7304815,-23.5369874,Coleta de Pilhas - Walmart Vila Leopoldina,ChIJI3tlp6P4zpQRw9ETtvzeTNE,pilhas;baterias
-46.7235979,-23.5864154,Coleta de Pilhas - Walmart Morumbi,ChIJnSjvuvFWzpQRJhwMAxEtIsU,pilhas;baterias
-46.6446522,-23.6292353,Coleta de Pilhas - Walmart Indianopolis,ChIJR5S3OPZazpQRYlMV7o3t1yc,pilhas;baterias
-46.5856465,-23.5936152,Coleta de Pilhas - Walmart Central Plaza,ChIJYXbXi3FczpQR01uC2cnve0M,pilhas;baterias
-46.507836,-23.564303,Coleta de Pilhas - Walmart Aricanduva,ChIJ__8Plm5nzpQRPHCuS_jX2I4,pilhas;baterias
-46.6576349,-23.5218523,Coleta de Pilhas - Walmart São Paulo ,ChIJ990pyw5YzpQRJSWuJP6Zvww,pilhas;baterias
-46.833529,-23.5916746,Coleta de Pilhas - Walmart Raposo Tavares,ChIJa1RSNrGqz5QRGh6M2fDZ-Xk,pilhas;baterias
-46.4498863,-23.4938549,Coleta de Pilhas - Sérgio Massagi Ikenaga,ChIJYU1WHnBhzpQRfhZTAZ8HrdE,pilhas;baterias
-46.6497352,-23.5316312,Coleta de Pilhas - Philips Still Vox ,ChIJOdWRF2tYzpQRXGxSFFz_aDA,pilhas;baterias
-46.6716916,-23.5224525,Coleta de Pilhas - Sitel do Brasil,ChIJUYVLvppZzpQRl-bes5e6FPM,pilhas;baterias
-46.6835047,-23.5391578,Coleta de Pilhas - Rovel Eletrica, ChIJb9ns4-5XzpQRqfO7MZf5uGk,pilhas;baterias
-46.542817,-23.5231042,Coleta de Pilhas - Penhatec Service,ChIJOybBV05ezpQRHh9a0zxWgVY,pilhas;baterias
-46.5552208,-23.5481026,Coleta de Pilhas - Partner Comercio e Assis. Técnica,ChIJi5N4JYhezpQRVjFEjD6BZ30,pilhas;baterias
-46.6468897,-23.5663325,Coleta de Pilhas - Extra Brigadeiro,ChIJ_RTiFblZzpQRiEvFnOtXJ3M,pilhas;baterias
-46.726905,-23.518449,Coleta de Pilhas - Extra Anhaguera, ChIJtePoe-n4zpQRfkJMSBkEiGQ,pilhas;baterias